{"type":"FeatureCollection", "features": [
{"type":"Feature","geometry":{"type":"Point","coordinates":[98.971,17.247]},"properties":{"DAM_ID":200101,"DAM_Name":"เขื่อนภูมิพล","DAM_Prov":"ตาก","DAM_QStore":13462}},
{"type":"Feature","geometry":{"type":"Point","coordinates":[100.5646,17.7656]},"properties":{"DAM_ID":200102,"DAM_Name":"เขื่อนสิริกิติ์","DAM_Prov":"อุตรดิตถ์","DAM_QStore":9510}},
{"type":"Feature","geometry":{"type":"Point","coordinates":[99.04011,19.16138]},"properties":{"DAM_ID":200103,"DAM_Name":"เขื่อนแม่งัดสมบูรณ์ชล","DAM_Prov":"เชียงใหม่","DAM_QStore":264.7}},
{"type":"Feature","geometry":{"type":"Point","coordinates":[99.121978,18.92348]},"properties":{"DAM_ID":100104,"DAM_Name":"เขื่อนแม่กวงอุดมธารา","DAM_Prov":"เชียงใหม่","DAM_QStore":263}},
{"type":"Feature","geometry":{"type":"Point","coordinates":[99.6239,18.5239]},"properties":{"DAM_ID":100105,"DAM_Name":"เขื่อนกิ่วลม","DAM_Prov":"ลำปาง","DAM_QStore":106.22}},
{"type":"Feature","geometry":{"type":"Point","coordinates":[99.64,18.8]},"properties":{"DAM_ID":100106,"DAM_Name":"เขื่อนกิ่วคอหมา","DAM_Prov":"ลำปาง","DAM_QStore":170}},
{"type":"Feature","geometry":{"type":"Point","coordinates":[100.327,17.023]},"properties":{"DAM_ID":100107,"DAM_Name":"เขื่อนแควน้อยบํารุงแดน","DAM_Prov":"พิษณุโลก","DAM_QStore":939}},
{"type":"Feature","geometry":{"type":"Point","coordinates":[99.42361467,17.20818657]},"properties":{"DAM_ID":100108,"DAM_Name":"เขื่อนแม่มอก","DAM_Prov":"ลำปาง","DAM_QStore":110}},
{"type":"Feature","geometry":{"type":"Point","coordinates":[103.9707,16.977]},"properties":{"DAM_ID":200203,"DAM_Name":"เขื่อนน้ำพุง","DAM_Prov":"สกลนคร","DAM_QStore":165}},
{"type":"Feature","geometry":{"type":"Point","coordinates":[101.6493,16.5356]},"properties":{"DAM_ID":200204,"DAM_Name":"เขื่อนจุฬาภรณ์","DAM_Prov":"ชัยภูมิ","DAM_QStore":164}},
{"type":"Feature","geometry":{"type":"Point","coordinates":[102.619,16.774]},"properties":{"DAM_ID":200205,"DAM_Name":"เขื่อนอุบลรัตน์","DAM_Prov":"ขอนแก่น","DAM_QStore":2431}},
{"type":"Feature","geometry":{"type":"Point","coordinates":[105.428,15.207]},"properties":{"DAM_ID":200212,"DAM_Name":"เขื่อนสิรินธร","DAM_Prov":"อุบลราชธานี","DAM_QStore":1966}},
{"type":"Feature","geometry":{"type":"Point","coordinates":[102.583,17.364]},"properties":{"DAM_ID":100201,"DAM_Name":"เขื่อนห้วยหลวง","DAM_Prov":"อุดรธานี","DAM_QStore":135.57}},
{"type":"Feature","geometry":{"type":"Point","coordinates":[103.7428,17.3095]},"properties":{"DAM_ID":100202,"DAM_Name":"เขื่อนน้ำอูน","DAM_Prov":"สกลนคร","DAM_QStore":520}},
{"type":"Feature","geometry":{"type":"Point","coordinates":[103.441,16.602595]},"properties":{"DAM_ID":100206,"DAM_Name":"เขื่อนลำปาว","DAM_Prov":"กาฬสินธุ์","DAM_QStore":1980}},
{"type":"Feature","geometry":{"type":"Point","coordinates":[101.5604,14.8652]},"properties":{"DAM_ID":100207,"DAM_Name":"เขื่อนลำตะคอง","DAM_Prov":"นครราชสีมา","DAM_QStore":314.49}},
{"type":"Feature","geometry":{"type":"Point","coordinates":[101.8401,14.5944]},"properties":{"DAM_ID":100208,"DAM_Name":"เขื่อนลำพระเพลิง","DAM_Prov":"นครราชสีมา","DAM_QStore":155}},
{"type":"Feature","geometry":{"type":"Point","coordinates":[102.1474,14.484]},"properties":{"DAM_ID":100209,"DAM_Name":"เขื่อนมูลบน","DAM_Prov":"นครราชสีมา","DAM_QStore":141}},
{"type":"Feature","geometry":{"type":"Point","coordinates":[102.2836,14.4084]},"properties":{"DAM_ID":100210,"DAM_Name":"เขื่อนลำแซะ","DAM_Prov":"นครราชสีมา","DAM_QStore":275}},
{"type":"Feature","geometry":{"type":"Point","coordinates":[102.764,14.3012]},"properties":{"DAM_ID":100211,"DAM_Name":"เขื่อนลำนางรอง","DAM_Prov":"บุรีรัมย์","DAM_QStore":121.41}},
{"type":"Feature","geometry":{"type":"Point","coordinates":[101.06615,14.8613]},"properties":{"DAM_ID":100301,"DAM_Name":"เขื่อนป่าสักชลสิทธิ์","DAM_Prov":"ลพบุรี","DAM_QStore":960}},
{"type":"Feature","geometry":{"type":"Point","coordinates":[99.4482,15.54369]},"properties":{"DAM_ID":100302,"DAM_Name":"เขื่อนทับเสลา","DAM_Prov":"อุทัยธานี","DAM_QStore":160}},
{"type":"Feature","geometry":{"type":"Point","coordinates":[99.6645,14.835957]},"properties":{"DAM_ID":100303,"DAM_Name":"เขื่อนกระเสียว","DAM_Prov":"สุพรรณบุรี","DAM_QStore":299}},
{"type":"Feature","geometry":{"type":"Point","coordinates":[99.1284,14.4091]},"properties":{"DAM_ID":200401,"DAM_Name":"เขื่อนศรีนครินทร์","DAM_Prov":"กาญจนบุรี","DAM_QStore":17745}},
{"type":"Feature","geometry":{"type":"Point","coordinates":[98.5929,14.7982]},"properties":{"DAM_ID":200402,"DAM_Name":"เขื่อนวชิราลงกรณ","DAM_Prov":"กาญจนบุรี","DAM_QStore":8860}},
{"type":"Feature","geometry":{"type":"Point","coordinates":[101.319,14.312]},"properties":{"DAM_ID":100501,"DAM_Name":"เขื่อนขุนด่านปราการชล","DAM_Prov":"นครนายก","DAM_QStore":224}},
{"type":"Feature","geometry":{"type":"Point","coordinates":[101.65,13.45]},"properties":{"DAM_ID":100502,"DAM_Name":"เขื่อนคลองสียัด","DAM_Prov":"ฉะเชิงเทรา","DAM_QStore":420}},
{"type":"Feature","geometry":{"type":"Point","coordinates":[100.9632,13.2148]},"properties":{"DAM_ID":100503,"DAM_Name":"เขื่อนบางพระ","DAM_Prov":"ชลบุรี","DAM_QStore":117}},
{"type":"Feature","geometry":{"type":"Point","coordinates":[101.251,12.969]},"properties":{"DAM_ID":100504,"DAM_Name":"เขื่อนหนองปลาไหล","DAM_Prov":"ระยอง","DAM_QStore":163.75}},
{"type":"Feature","geometry":{"type":"Point","coordinates":[101.57,13.028]},"properties":{"DAM_ID":100505,"DAM_Name":"เขื่อนประแสร์","DAM_Prov":"ระยอง","DAM_QStore":295}},
{"type":"Feature","geometry":{"type":"Point","coordinates":[102.0149,14.0446]},"properties":{"DAM_ID":100514,"DAM_Name":"เขื่อนนฤบดินทร์จินดา","DAM_Prov":"ปราจีนบุรี","DAM_QStore":295}},
{"type":"Feature","geometry":{"type":"Point","coordinates":[98.806,8.9726]},"properties":{"DAM_ID":200603,"DAM_Name":"เขื่อนรัชชประภา","DAM_Prov":"สุราษฎร์ธานี","DAM_QStore":5638.84}},
{"type":"Feature","geometry":{"type":"Point","coordinates":[101.268,6.155]},"properties":{"DAM_ID":200604,"DAM_Name":"เขื่อนบางลาง","DAM_Prov":"ยะลา","DAM_QStore":1454.36}},
{"type":"Feature","geometry":{"type":"Point","coordinates":[99.62814,12.93162]},"properties":{"DAM_ID":200601,"DAM_Name":"เขื่อนแก่งกระจาน","DAM_Prov":"เพชรบุรี","DAM_QStore":710}},
{"type":"Feature","geometry":{"type":"Point","coordinates":[99.79311,12.462558]},"properties":{"DAM_ID":100602,"DAM_Name":"เขื่อนปราณบุรี","DAM_Prov":"ประจวบคีรีขันธ์","DAM_QStore":391}}
]}