{"type":"FeatureCollection", "features": [
{"type":"Feature","geometry":{"type":"Point","coordinates":[102.13801670178378,15.02781130724465]},"properties":{"no":1,"location":"ถนนหน้าทางเข้าวัดช่องอู่ เทศบาลเมืองนครราชสีมา","N":1663396.24,"E":192243.69,"Zone":48,"MapSheet":"5439 III","Tambon":"จอหอ","District":"เมือง","Province":"นครราชสีมา","MapControl":"500565","Year":2553,"Ele_m":0.23,"Flood_Ht_m":175.643}},
{"type":"Feature","geometry":{"type":"Point","coordinates":[101.64313693425773,14.848627585106145]},"properties":{"no":2,"location":"วัดโนนทอง สีคิ้ว","N":1644298.38,"E":138678.72,"Zone":48,"MapSheet":"5338 IV","Tambon":"ลาดบัวขาว","District":" สีคิ้ว","Province":"นครราชสีมา","MapControl":"500761","Year":2553,"Ele_m":0.71,"Flood_Ht_m":242.205}},
{"type":"Feature","geometry":{"type":"Point","coordinates":[104.31771162621463,15.120279552015802]},"properties":{"no":3,"location":"ห้องน้ำที่ทำการชุมชนสะพานขาว","N":1671743.38,"E":426688.56,"Zone":48,"MapSheet":"5839 II","Tambon":"หญ้าปล้อง","District":"เมือง","Province":"ศรีสะเกษ","MapControl":"500919","Year":2556,"Ele_m":2.6,"Flood_Ht_m":121.762}},
{"type":"Feature","geometry":{"type":"Point","coordinates":[103.47795772606008,14.849901705599807]},"properties":{"no":4,"location":"ร้านอาหารสวนป่ารีสอร์ท","N":1642282.12,"E":336238.66,"Zone":48,"MapSheet":"5638 I","Tambon":"เฉนียง","District":"เมือง","Province":"สุรินทร์","MapControl":"หมุดกรมทางหลวงชนบท SRN-0027","Year":2556,"Ele_m":2.2,"Flood_Ht_m":141.029}},
{"type":"Feature","geometry":{"type":"Point","coordinates":[104.83331274568107,15.203931912154689]},"properties":{"no":5,"location":"บ้านพักอาศัย วารินชำราบ","N":1680888.8,"E":482096.95,"Zone":48,"MapSheet":"5939 II","Tambon":"คำน้ำแซบ","District":"วารินชำราบ","Province":"อุบลราชธานี","MapControl":"500065","Year":2562,"Ele_m":1.75,"Flood_Ht_m":116.369}},
{"type":"Feature","geometry":{"type":"Point","coordinates":[101.41805281870293,14.70122458608041]},"properties":{"no":6,"location":"บ้านพักอาศัย ปากช่อง","N":1628344.17,"E":114163.96,"Zone":48,"MapSheet":"5238 II","Tambon":"ปากช่อง","District":"ปากช่อง","Province":"นครราชสีมา","MapControl":"500624","Year":2563,"Ele_m":0.88,"Flood_Ht_m":298.002}},
{"type":"Feature","geometry":{"type":"Point","coordinates":[103.1009836954551,14.994778886540773]},"properties":{"no":7,"location":"หน้าสหกรณ์ออมทรัพย์ครู บุรีรัมย์ จำกัด ","N":1658624.28,"E":295804.01,"Zone":48,"MapSheet":"5638 IV","Tambon":"ในเมือง","District":"เมือง","Province":"บุรีรัมย์","MapControl":"หมุดกรมทางหลวงชนบท  BRM-0019 ","Year":2563,"Ele_m":0.2,"Flood_Ht_m":154.658}},
{"type":"Feature","geometry":{"type":"Point","coordinates":[105.23890891430362,15.247300224883062]},"properties":{"no":8,"location":"ตลาดสดเทศบาล พิบูลมังสาหาร","N":1685692.86,"E":525654.8,"Zone":48,"MapSheet":"6039 III","Tambon":"พิบูล","District":"พิบูลมังสาหาร","Province":"อุบลราชธานี","MapControl":"500027","Year":2563,"Ele_m":0.6,"Flood_Ht_m":113.882}},
{"type":"Feature","geometry":{"type":"Point","coordinates":[104.86966293861212,15.226188539512059]},"properties":{"no":9,"location":"บ้านพักอาศัย อุบลราชธานี","N":1683347.88,"E":486002.62,"Zone":48,"MapSheet":"5939 II","Tambon":"ในเมือง","District":"เมือง","Province":"อุบลราชธานี","MapControl":"500058","Year":2563,"Ele_m":2.1,"Flood_Ht_m":117.24}},
{"type":"Feature","geometry":{"type":"Point","coordinates":[104.8159134770245,15.207840706373688]},"properties":{"no":10,"location":"อาคารที่พักอาศัย(ร้าง) แจระแม","N":1681322.64,"E":480228.54,"Zone":48,"MapSheet":"5939 II","Tambon":"แจระมา","District":"เมือง","Province":"อุบลราชธานี","MapControl":"500066","Year":2563,"Ele_m":3,"Flood_Ht_m":116.371}}
]}