{"type":"FeatureCollection", "features": [
{"type":"Feature","geometry":{"type":"Point","coordinates":[105.428,15.207]},"properties":{"res_id":"200212","size":"l","res_name":"เขื่อนสิรินธร","province":"อุบลราชธานี","lat":15.207,"lon":105.428,"vol_mcm":1966}},
{"type":"Feature","geometry":{"type":"Point","coordinates":[101.5604,14.8652]},"properties":{"res_id":"100207","size":"l","res_name":"เขื่อนลำตะคอง","province":"นครราชสีมา","lat":14.8652,"lon":101.5604,"vol_mcm":314.49}},
{"type":"Feature","geometry":{"type":"Point","coordinates":[101.8401,14.5944]},"properties":{"res_id":"100208","size":"l","res_name":"เขื่อนลำพระเพลิง","province":"นครราชสีมา","lat":14.5944,"lon":101.8401,"vol_mcm":155}},
{"type":"Feature","geometry":{"type":"Point","coordinates":[102.1474,14.484]},"properties":{"res_id":"100209","size":"l","res_name":"เขื่อนมูลบน","province":"นครราชสีมา","lat":14.484,"lon":102.1474,"vol_mcm":141}},
{"type":"Feature","geometry":{"type":"Point","coordinates":[102.2836,14.4084]},"properties":{"res_id":"100210","size":"l","res_name":"เขื่อนลำแซะ","province":"นครราชสีมา","lat":14.4084,"lon":102.2836,"vol_mcm":275}},
{"type":"Feature","geometry":{"type":"Point","coordinates":[102.764,14.3012]},"properties":{"res_id":"100211","size":"l","res_name":"เขื่อนลำนางรอง","province":"บุรีรัมย์","lat":14.3012,"lon":102.764,"vol_mcm":121.41}},
{"type":"Feature","geometry":{"type":"Point","coordinates":[102.6046641,15.69018966]},"properties":{"res_id":"rsv183","size":"m","res_name":"อ่างเก็บน้ำละเลิงหวาย","province":"ขอนแก่น","lat":15.69018966,"lon":102.6046641,"vol_mcm":3.737}},
{"type":"Feature","geometry":{"type":"Point","coordinates":[103.1613224,15.98545614]},"properties":{"res_id":"rsv194","size":"m","res_name":"อ่างเก็บน้ำร่องหัวช้าง","province":"มหาสารคาม","lat":15.98545614,"lon":103.1613224,"vol_mcm":1.29}},
{"type":"Feature","geometry":{"type":"Point","coordinates":[103.2708153,15.94812723]},"properties":{"res_id":"rsv196","size":"m","res_name":"อ่างเก็บน้ำห้วยคะคาง","province":"มหาสารคาม","lat":15.94812723,"lon":103.2708153,"vol_mcm":4.126}},
{"type":"Feature","geometry":{"type":"Point","coordinates":[103.3952116,15.9256911]},"properties":{"res_id":"rsv198","size":"m","res_name":"อ่างเก็บน้ำหนองแกดำ","province":"มหาสารคาม","lat":15.9256911,"lon":103.3952116,"vol_mcm":1.625}},
{"type":"Feature","geometry":{"type":"Point","coordinates":[103.0431675,15.72290498]},"properties":{"res_id":"rsv199","size":"m","res_name":"อ่างเก็บน้ำห้วยค้อ","province":"มหาสารคาม","lat":15.72290498,"lon":103.0431675,"vol_mcm":31.338}},
{"type":"Feature","geometry":{"type":"Point","coordinates":[103.0943452,15.90777776]},"properties":{"res_id":"rsv200","size":"m","res_name":"อ่างเก็บน้ำเอกสัตย์สุนทร","province":"มหาสารคาม","lat":15.90777776,"lon":103.0943452,"vol_mcm":0.87}},
{"type":"Feature","geometry":{"type":"Point","coordinates":[103.1285254,15.92237593]},"properties":{"res_id":"rsv201","size":"m","res_name":"อ่างเก็บน้ำหนองบ่อ","province":"มหาสารคาม","lat":15.92237593,"lon":103.1285254,"vol_mcm":3.584}},
{"type":"Feature","geometry":{"type":"Point","coordinates":[103.1025345,15.86837982]},"properties":{"res_id":"rsv202","size":"m","res_name":"อ่างเก็บน้ำห้วยเชียงคำ","province":"มหาสารคาม","lat":15.86837982,"lon":103.1025345,"vol_mcm":5.066}},
{"type":"Feature","geometry":{"type":"Point","coordinates":[103.3798052,15.73017936]},"properties":{"res_id":"rsv203","size":"m","res_name":"อ่างเก็บน้ำห้วยจอกขวาง","province":"มหาสารคาม","lat":15.73017936,"lon":103.3798052,"vol_mcm":3.036}},
{"type":"Feature","geometry":{"type":"Point","coordinates":[103.4271542,15.71313126]},"properties":{"res_id":"rsv204","size":"m","res_name":"อ่างเก็บน้ำหนองไฮ","province":"มหาสารคาม","lat":15.71313126,"lon":103.4271542,"vol_mcm":2.244}},
{"type":"Feature","geometry":{"type":"Point","coordinates":[103.3524797,15.86645563]},"properties":{"res_id":"rsv205","size":"m","res_name":"อ่างเก็บน้ำฮองซองแมว","province":"มหาสารคาม","lat":15.86645563,"lon":103.3524797,"vol_mcm":0.564}},
{"type":"Feature","geometry":{"type":"Point","coordinates":[102.9927604,15.82278849]},"properties":{"res_id":"rsv206","size":"m","res_name":"อ่างเก็บน้ำหนองคูขาด","province":"มหาสารคาม","lat":15.82278849,"lon":102.9927604,"vol_mcm":0.368}},
{"type":"Feature","geometry":{"type":"Point","coordinates":[103.4517042,15.77615817]},"properties":{"res_id":"rsv210","size":"m","res_name":"อ่างเก็บน้ำห้วยแล้ง","province":"ร้อยเอ็ด","lat":15.77615817,"lon":103.4517042,"vol_mcm":4.414}},
{"type":"Feature","geometry":{"type":"Point","coordinates":[103.5090573,15.7502239]},"properties":{"res_id":"rsv212","size":"m","res_name":"อ่างเก็บน้ำห้วยกุดแคน","province":"ร้อยเอ็ด","lat":15.7502239,"lon":103.5090573,"vol_mcm":1.996}},
{"type":"Feature","geometry":{"type":"Point","coordinates":[103.5652919,15.74727523]},"properties":{"res_id":"rsv213","size":"m","res_name":"อ่างเก็บน้ำห้วยกุดแดง","province":"ร้อยเอ็ด","lat":15.74727523,"lon":103.5652919,"vol_mcm":2.806}},
{"type":"Feature","geometry":{"type":"Point","coordinates":[103.377988,15.54977205]},"properties":{"res_id":"rsv214","size":"m","res_name":"อ่างเก็บน้ำห้วยจานใต้","province":"ร้อยเอ็ด","lat":15.54977205,"lon":103.377988,"vol_mcm":5.795}},
{"type":"Feature","geometry":{"type":"Point","coordinates":[104.0858115,15.50453525]},"properties":{"res_id":"rsv215","size":"m","res_name":"อ่างเก็บน้ำหนองผือ","province":"ร้อยเอ็ด","lat":15.50453525,"lon":104.0858115,"vol_mcm":4.178}},
{"type":"Feature","geometry":{"type":"Point","coordinates":[103.9588964,15.56961667]},"properties":{"res_id":"rsv216","size":"m","res_name":"อ่างเก็บน้ำหนองท่าจอก","province":"ร้อยเอ็ด","lat":15.56961667,"lon":103.9588964,"vol_mcm":0.988}},
{"type":"Feature","geometry":{"type":"Point","coordinates":[104.5719682,16.2534821]},"properties":{"res_id":"rsv235","size":"m","res_name":"อ่างเก็บน้ำห้วยขี้เหล็ก","province":"มุกดาหาร","lat":16.2534821,"lon":104.5719682,"vol_mcm":23.7}},
{"type":"Feature","geometry":{"type":"Point","coordinates":[105.0412168,15.52772743]},"properties":{"res_id":"rsv248","size":"m","res_name":"อ่างเก็บน้ำห้วยถ้ำแข้","province":"อุบลราชธานี","lat":15.52772743,"lon":105.0412168,"vol_mcm":13.7}},
{"type":"Feature","geometry":{"type":"Point","coordinates":[105.2102689,14.3634952]},"properties":{"res_id":"rsv249","size":"m","res_name":"อ่างเก็บน้ำห้วยพลาญเสือ(ห้วยผึ้ง)","province":"อุบลราชธานี","lat":14.3634952,"lon":105.2102689,"vol_mcm":33.5}},
{"type":"Feature","geometry":{"type":"Point","coordinates":[105.145217,14.319281]},"properties":{"res_id":"rsv250","size":"m","res_name":"อ่างเก็บน้ำห้วยจันลา","province":"อุบลราชธานี","lat":14.319281,"lon":105.145217,"vol_mcm":16.9}},
{"type":"Feature","geometry":{"type":"Point","coordinates":[105.052421,14.35618325]},"properties":{"res_id":"rsv251","size":"m","res_name":"อ่างเก็บน้ำห้วยวังใหญ่","province":"อุบลราชธานี","lat":14.35618325,"lon":105.052421,"vol_mcm":8}},
{"type":"Feature","geometry":{"type":"Point","coordinates":[105.4421114,14.5527297]},"properties":{"res_id":"rsv252","size":"m","res_name":"อ่างเก็บน้ำห้วยเดือนห้า","province":"อุบลราชธานี","lat":14.5527297,"lon":105.4421114,"vol_mcm":12}},
{"type":"Feature","geometry":{"type":"Point","coordinates":[105.4295401,14.58593155]},"properties":{"res_id":"rsv253","size":"m","res_name":"อ่างเก็บน้ำห้วยสะพงน้อย","province":"อุบลราชธานี","lat":14.58593155,"lon":105.4295401,"vol_mcm":14.7}},
{"type":"Feature","geometry":{"type":"Point","coordinates":[104.9400866,15.3511948]},"properties":{"res_id":"rsv254","size":"m","res_name":"อ่างเก็บน้ำสระสมิง","province":"อุบลราชธานี","lat":15.3511948,"lon":104.9400866,"vol_mcm":1.01}},
{"type":"Feature","geometry":{"type":"Point","coordinates":[104.8294542,15.29877189]},"properties":{"res_id":"rsv256","size":"m","res_name":"อ่างเก็บน้ำหนองช้างใหญ่","province":"อุบลราชธานี","lat":15.29877189,"lon":104.8294542,"vol_mcm":7.675}},
{"type":"Feature","geometry":{"type":"Point","coordinates":[105.1973816,15.14330542]},"properties":{"res_id":"rsv257","size":"m","res_name":"อ่างเก็บน้ำหัวยวังแดง","province":"อุบลราชธานี","lat":15.14330542,"lon":105.1973816,"vol_mcm":0.662}},
{"type":"Feature","geometry":{"type":"Point","coordinates":[105.4779422,14.6606423]},"properties":{"res_id":"rsv258","size":"m","res_name":"อ่างเก็บน้ำห้วยโดน","province":"อุบลราชธานี","lat":14.6606423,"lon":105.4779422,"vol_mcm":4.7}},
{"type":"Feature","geometry":{"type":"Point","coordinates":[105.3901,14.6234]},"properties":{"res_id":"rsv451","size":"m","res_name":"อ่างเก็บน้ำห้วยละมืด","province":"อุบลราชธานี","lat":14.6234,"lon":105.3901,"vol_mcm":6.7}},
{"type":"Feature","geometry":{"type":"Point","coordinates":[105.4785,14.8461]},"properties":{"res_id":"rsv452","size":"m","res_name":"อ่างเก็บน้ำห้วยหินกอง","province":"อุบลราชธานี","lat":14.8461,"lon":105.4785,"vol_mcm":8}},
{"type":"Feature","geometry":{"type":"Point","coordinates":[104.3967939,16.14673206]},"properties":{"res_id":"rsv259","size":"m","res_name":"อ่างเก็บน้ำห้วยลิงโจน","province":"ยโสธร","lat":16.14673206,"lon":104.3967939,"vol_mcm":21}},
{"type":"Feature","geometry":{"type":"Point","coordinates":[104.6854109,16.05320475]},"properties":{"res_id":"rsv260","size":"m","res_name":"อ่างเก็บน้ำห้วยสะแบก","province":"ยโสธร","lat":16.05320475,"lon":104.6854109,"vol_mcm":30.3}},
{"type":"Feature","geometry":{"type":"Point","coordinates":[104.3315,16.1906]},"properties":{"res_id":"rsv453","size":"m","res_name":"อ่างเก็บน้ำห้วยโพงตอนบน","province":"ยโสธร","lat":16.1906,"lon":104.3315,"vol_mcm":12.4}},
{"type":"Feature","geometry":{"type":"Point","coordinates":[104.6339155,15.78547313]},"properties":{"res_id":"rsv261","size":"m","res_name":"อ่างเก็บน้ำพุทธอุทธยาน","province":"อำนาจเจริญ","lat":15.78547313,"lon":104.6339155,"vol_mcm":19.325}},
{"type":"Feature","geometry":{"type":"Point","coordinates":[104.5864031,15.78848889]},"properties":{"res_id":"rsv262","size":"m","res_name":"อ่างเก็บน้ำห้วยโพธิ์","province":"อำนาจเจริญ","lat":15.78848889,"lon":104.5864031,"vol_mcm":7.438}},
{"type":"Feature","geometry":{"type":"Point","coordinates":[104.3219936,15.78365067]},"properties":{"res_id":"rsv263","size":"m","res_name":"อ่างเก็บน้ำห้วยสีโท","province":"อำนาจเจริญ","lat":15.78365067,"lon":104.3219936,"vol_mcm":10.6}},
{"type":"Feature","geometry":{"type":"Point","coordinates":[104.6148376,15.77504282]},"properties":{"res_id":"rsv264","size":"m","res_name":"อ่างเก็บน้ำร่องน้ำซับ","province":"อำนาจเจริญ","lat":15.77504282,"lon":104.6148376,"vol_mcm":0.426}},
{"type":"Feature","geometry":{"type":"Point","coordinates":[103.2004561,15.1873639]},"properties":{"res_id":"rsv265","size":"m","res_name":"อ่างเก็บน้ำลำตะโคง","province":"บุรีรัมย์","lat":15.1873639,"lon":103.2004561,"vol_mcm":7.58}},
{"type":"Feature","geometry":{"type":"Point","coordinates":[102.4819064,14.49689845]},"properties":{"res_id":"rsv266","size":"m","res_name":"อ่างเก็บน้ำห้วยยาง","province":"บุรีรัมย์","lat":14.49689845,"lon":102.4819064,"vol_mcm":13.8}},
{"type":"Feature","geometry":{"type":"Point","coordinates":[103.046944,14.3636111]},"properties":{"res_id":"rsv267","size":"m","res_name":"อ่างเก็บน้ำห้วยตาเขียว","province":"บุรีรัมย์","lat":14.3636111,"lon":103.046944,"vol_mcm":1.9}},
{"type":"Feature","geometry":{"type":"Point","coordinates":[103.2469901,14.8150885]},"properties":{"res_id":"rsv268","size":"m","res_name":"อ่างเก็บน้ำห้วยสวาย","province":"บุรีรัมย์","lat":14.8150885,"lon":103.2469901,"vol_mcm":13.56}},
{"type":"Feature","geometry":{"type":"Point","coordinates":[103.0866368,14.78435519]},"properties":{"res_id":"rsv269","size":"m","res_name":"อ่างเก็บน้ำห้วยตลาด","province":"บุรีรัมย์","lat":14.78435519,"lon":103.0866368,"vol_mcm":27.82}},
{"type":"Feature","geometry":{"type":"Point","coordinates":[103.0443703,14.8170571]},"properties":{"res_id":"rsv270","size":"m","res_name":"อ่างเก็บน้ำห้วยจระเข้มาก","province":"บุรีรัมย์","lat":14.8170571,"lon":103.0443703,"vol_mcm":26.02}},
{"type":"Feature","geometry":{"type":"Point","coordinates":[103.070975,14.35668]},"properties":{"res_id":"rsv271","size":"m","res_name":"อ่างเก็บน้ำห้วยเมฆา","province":"บุรีรัมย์","lat":14.35668,"lon":103.070975,"vol_mcm":4.07}},
{"type":"Feature","geometry":{"type":"Point","coordinates":[102.7478721,14.20595676]},"properties":{"res_id":"rsv272","size":"m","res_name":"อ่างเก็บน้ำคลองมะนาว","province":"บุรีรัมย์","lat":14.20595676,"lon":102.7478721,"vol_mcm":2.848}},
{"type":"Feature","geometry":{"type":"Point","coordinates":[102.7972312,14.57238191]},"properties":{"res_id":"rsv273","size":"m","res_name":"อ่างเก็บน้ำหนองทะลอก","province":"บุรีรัมย์","lat":14.57238191,"lon":102.7972312,"vol_mcm":3.43}},
{"type":"Feature","geometry":{"type":"Point","coordinates":[102.8419423,14.92419021]},"properties":{"res_id":"rsv274","size":"m","res_name":"อ่างเก็บน้ำห้วยขี้หนู","province":"บุรีรัมย์","lat":14.92419021,"lon":102.8419423,"vol_mcm":1.56}},
{"type":"Feature","geometry":{"type":"Point","coordinates":[102.8396441,14.9779486]},"properties":{"res_id":"rsv275","size":"m","res_name":"อ่างเก็บน้ำห้วยน้อย","province":"บุรีรัมย์","lat":14.9779486,"lon":102.8396441,"vol_mcm":1.2}},
{"type":"Feature","geometry":{"type":"Point","coordinates":[102.840546,15.00004214]},"properties":{"res_id":"rsv276","size":"m","res_name":"อ่างเก็บน้ำห้วยใหญ่","province":"บุรีรัมย์","lat":15.00004214,"lon":102.840546,"vol_mcm":1.31}},
{"type":"Feature","geometry":{"type":"Point","coordinates":[102.9394231,14.23146033]},"properties":{"res_id":"rsv277","size":"m","res_name":"อ่างเก็บน้ำลำปะเทีย","province":"บุรีรัมย์","lat":14.23146033,"lon":102.9394231,"vol_mcm":25.4}},
{"type":"Feature","geometry":{"type":"Point","coordinates":[102.8670387,14.22163053]},"properties":{"res_id":"rsv278","size":"m","res_name":"อ่างเก็บน้ำลำจังหัน","province":"บุรีรัมย์","lat":14.22163053,"lon":102.8670387,"vol_mcm":36}},
{"type":"Feature","geometry":{"type":"Point","coordinates":[103.1626444,14.369866]},"properties":{"res_id":"rsv279","size":"m","res_name":"อ่างเก็บน้ำห้วยตะโก","province":"บุรีรัมย์","lat":14.369866,"lon":103.1626444,"vol_mcm":3.25}},
{"type":"Feature","geometry":{"type":"Point","coordinates":[102.4393408,14.20988504]},"properties":{"res_id":"rsv281","size":"m","res_name":"อ่างเก็บน้ำลำปลายมาศ","province":"นครราชสีมา","lat":14.20988504,"lon":102.4393408,"vol_mcm":98}},
{"type":"Feature","geometry":{"type":"Point","coordinates":[101.873762,14.58492108]},"properties":{"res_id":"rsv288","size":"m","res_name":"อ่างเก็บน้ำลำสำลาย","province":"นครราชสีมา","lat":14.58492108,"lon":101.873762,"vol_mcm":42}},
{"type":"Feature","geometry":{"type":"Point","coordinates":[102.5400111,14.25451639]},"properties":{"res_id":"rsv296","size":"m","res_name":"อ่างเก็บน้ำห้วยเตย","province":"นครราชสีมา","lat":14.25451639,"lon":102.5400111,"vol_mcm":4.396}},
{"type":"Feature","geometry":{"type":"Point","coordinates":[101.9577778,14.4925]},"properties":{"res_id":"rsv298","size":"m","res_name":"อ่างเก็บน้ำลำเชียงสา","province":"นครราชสีมา","lat":14.4925,"lon":101.9577778,"vol_mcm":7.5}},
{"type":"Feature","geometry":{"type":"Point","coordinates":[101.7083333,14.3883333]},"properties":{"res_id":"rsv489","size":"m","res_name":"อ่างเก็บน้ำบ้านสันกำแพง","province":"นครราชสีมา","lat":14.3883333,"lon":101.7083333,"vol_mcm":6.4}},
{"type":"Feature","geometry":{"type":"Point","coordinates":[104.829891,14.441401]},"properties":{"res_id":"rsv302","size":"m","res_name":"อ่างเก็บน้ำห้วยขนุน","province":"ศรีสะเกษ","lat":14.441401,"lon":104.829891,"vol_mcm":10.2}},
{"type":"Feature","geometry":{"type":"Point","coordinates":[104.2418154,14.45053358]},"properties":{"res_id":"rsv303","size":"m","res_name":"อ่างเก็บน้ำห้วยโอตาลัต","province":"ศรีสะเกษ","lat":14.45053358,"lon":104.2418154,"vol_mcm":3.8}},
{"type":"Feature","geometry":{"type":"Point","coordinates":[104.5778484,14.39745046]},"properties":{"res_id":"rsv304","size":"m","res_name":"อ่างเก็บน้ำห้วยด่านไอ","province":"ศรีสะเกษ","lat":14.39745046,"lon":104.5778484,"vol_mcm":8.03}},
{"type":"Feature","geometry":{"type":"Point","coordinates":[104.3550298,14.44997005]},"properties":{"res_id":"rsv305","size":"m","res_name":"อ่างเก็บน้ำห้วยตาจู","province":"ศรีสะเกษ","lat":14.44997005,"lon":104.3550298,"vol_mcm":22.28}},
{"type":"Feature","geometry":{"type":"Point","coordinates":[104.050778,14.425025]},"properties":{"res_id":"rsv306","size":"m","res_name":"อ่างเก็บน้ำห้วยสำราญ","province":"ศรีสะเกษ","lat":14.425025,"lon":104.050778,"vol_mcm":12.35}},
{"type":"Feature","geometry":{"type":"Point","coordinates":[104.1954895,14.43061152]},"properties":{"res_id":"rsv307","size":"m","res_name":"อ่างเก็บน้ำห้วยศาลา","province":"ศรีสะเกษ","lat":14.43061152,"lon":104.1954895,"vol_mcm":37.07}},
{"type":"Feature","geometry":{"type":"Point","coordinates":[104.1524371,14.43046166]},"properties":{"res_id":"rsv308","size":"m","res_name":"อ่างเก็บน้ำห้วยติ๊กชู","province":"ศรีสะเกษ","lat":14.43046166,"lon":104.1524371,"vol_mcm":26.2}},
{"type":"Feature","geometry":{"type":"Point","coordinates":[104.3357302,14.99808183]},"properties":{"res_id":"rsv309","size":"m","res_name":"อ่างเก็บน้ำห้วยน้ำคำ","province":"ศรีสะเกษ","lat":14.99808183,"lon":104.3357302,"vol_mcm":2.45}},
{"type":"Feature","geometry":{"type":"Point","coordinates":[104.2532217,14.91515497]},"properties":{"res_id":"rsv310","size":"m","res_name":"อ่างเก็บน้ำห้วยคล้า","province":"ศรีสะเกษ","lat":14.91515497,"lon":104.2532217,"vol_mcm":3.78}},
{"type":"Feature","geometry":{"type":"Point","coordinates":[104.1362202,15.31690327]},"properties":{"res_id":"rsv311","size":"m","res_name":"อ่างเก็บน้ำห้วยน้ำเค็ม","province":"ศรีสะเกษ","lat":15.31690327,"lon":104.1362202,"vol_mcm":1.07}},
{"type":"Feature","geometry":{"type":"Point","coordinates":[104.3730373,14.96583601]},"properties":{"res_id":"rsv312","size":"m","res_name":"อ่างเก็บน้ำห้วยชัน","province":"ศรีสะเกษ","lat":14.96583601,"lon":104.3730373,"vol_mcm":2.7}},
{"type":"Feature","geometry":{"type":"Point","coordinates":[104.5922578,14.63382423]},"properties":{"res_id":"rsv313","size":"m","res_name":"อ่างเก็บน้ำห้วยตามาย","province":"ศรีสะเกษ","lat":14.63382423,"lon":104.5922578,"vol_mcm":37.29}},
{"type":"Feature","geometry":{"type":"Point","coordinates":[104.4281664,14.51755611]},"properties":{"res_id":"rsv314","size":"m","res_name":"อ่างเก็บน้ำหนองสิ","province":"ศรีสะเกษ","lat":14.51755611,"lon":104.4281664,"vol_mcm":3.66}},
{"type":"Feature","geometry":{"type":"Point","coordinates":[104.2096942,14.64370152]},"properties":{"res_id":"rsv315","size":"m","res_name":"อ่างเก็บน้ำหนองสอางค์","province":"ศรีสะเกษ","lat":14.64370152,"lon":104.2096942,"vol_mcm":0.68}},
{"type":"Feature","geometry":{"type":"Point","coordinates":[104.4757333,14.42240954]},"properties":{"res_id":"rsv316","size":"m","res_name":"อ่างเก็บน้ำห้วยทา","province":"ศรีสะเกษ","lat":14.42240954,"lon":104.4757333,"vol_mcm":29.58}},
{"type":"Feature","geometry":{"type":"Point","coordinates":[104.4749677,14.38894209]},"properties":{"res_id":"rsv317","size":"m","res_name":"อ่างเก็บน้ำห้วยตะแบง","province":"ศรีสะเกษ","lat":14.38894209,"lon":104.4749677,"vol_mcm":6.88}},
{"type":"Feature","geometry":{"type":"Point","coordinates":[103.8407419,15.18480209]},"properties":{"res_id":"rsv318","size":"m","res_name":"อ่างเก็บน้ำห้วยแก้ว","province":"สุรินทร์","lat":15.18480209,"lon":103.8407419,"vol_mcm":4.919}},
{"type":"Feature","geometry":{"type":"Point","coordinates":[103.740997,14.455789]},"properties":{"res_id":"rsv319","size":"m","res_name":"อ่างเก็บน้ำห้วยเชิง","province":"สุรินทร์","lat":14.455789,"lon":103.740997,"vol_mcm":8}},
{"type":"Feature","geometry":{"type":"Point","coordinates":[103.7868417,14.4397]},"properties":{"res_id":"rsv320","size":"m","res_name":"อ่างเก็บน้ำห้วยขนาดมอญ","province":"สุรินทร์","lat":14.4397,"lon":103.7868417,"vol_mcm":15.5}},
{"type":"Feature","geometry":{"type":"Point","coordinates":[103.5509831,14.6665334]},"properties":{"res_id":"rsv321","size":"m","res_name":"อ่างเก็บน้ำอำปึล","province":"สุรินทร์","lat":14.6665334,"lon":103.5509831,"vol_mcm":27.675}},
{"type":"Feature","geometry":{"type":"Point","coordinates":[103.4977113,14.7156097]},"properties":{"res_id":"rsv322","size":"m","res_name":"อ่างเก็บน้ำห้วยเสนง","province":"สุรินทร์","lat":14.7156097,"lon":103.4977113,"vol_mcm":21.962}},
{"type":"Feature","geometry":{"type":"Point","coordinates":[103.8584426,14.83446556]},"properties":{"res_id":"rsv323","size":"m","res_name":"อ่างเก็บน้ำห้วยลำพอก","province":"สุรินทร์","lat":14.83446556,"lon":103.8584426,"vol_mcm":14.58}},
{"type":"Feature","geometry":{"type":"Point","coordinates":[103.7111778,14.440597]},"properties":{"res_id":"rsv324","size":"m","res_name":"อ่างเก็บน้ำห้วยด่าน","province":"สุรินทร์","lat":14.440597,"lon":103.7111778,"vol_mcm":9.4}},
{"type":"Feature","geometry":{"type":"Point","coordinates":[103.9823583,14.4296]},"properties":{"res_id":"rsv325","size":"m","res_name":"อ่างเก็บน้ำบ้านทำนบ","province":"สุรินทร์","lat":14.4296,"lon":103.9823583,"vol_mcm":12}},
{"type":"Feature","geometry":{"type":"Point","coordinates":[103.947778,14.4197222]},"properties":{"res_id":"rsv326","size":"m","res_name":"อ่างเก็บน้ำบ้านจรัส","province":"สุรินทร์","lat":14.4197222,"lon":103.947778,"vol_mcm":15}},
{"type":"Feature","geometry":{"type":"Point","coordinates":[103.9634108,14.84843807]},"properties":{"res_id":"rsv327","size":"m","res_name":"อ่างเก็บน้ำบ้านเกาะแก้ว","province":"สุรินทร์","lat":14.84843807,"lon":103.9634108,"vol_mcm":6}},
{"type":"Feature","geometry":{"type":"Point","coordinates":[103.6115889,14.461108]},"properties":{"res_id":"rsv328","size":"m","res_name":"อ่างเก็บน้ำห้วยตาเกาว์","province":"สุรินทร์","lat":14.461108,"lon":103.6115889,"vol_mcm":8.6}},
{"type":"Feature","geometry":{"type":"Point","coordinates":[103.4014301,14.54427674]},"properties":{"res_id":"rsv329","size":"m","res_name":"อ่างเก็บน้ำสุวรรณาภา","province":"สุรินทร์","lat":14.54427674,"lon":103.4014301,"vol_mcm":1.57}},
{"type":"Feature","geometry":{"type":"Point","coordinates":[103.864914,14.428783]},"properties":{"res_id":"rsv330","size":"m","res_name":"อ่างเก็บน้ำห้วยกะเลงเวก","province":"สุรินทร์","lat":14.428783,"lon":103.864914,"vol_mcm":3.4}},
{"type":"Feature","geometry":{"type":"Point","coordinates":[103.7013465,14.9908715]},"properties":{"res_id":"rsv331","size":"m","res_name":"อ่างเก็บน้ำห้วยระหาร","province":"สุรินทร์","lat":14.9908715,"lon":103.7013465,"vol_mcm":1.012}},
{"type":"Feature","geometry":{"type":"Point","coordinates":[103.8126756,15.20891665]},"properties":{"res_id":"rsv332","size":"m","res_name":"อ่างเก็บน้ำหนองกา","province":"สุรินทร์","lat":15.20891665,"lon":103.8126756,"vol_mcm":0.594}},
{"type":"Feature","geometry":{"type":"Point","coordinates":[103.2859206,14.7177403]},"properties":{"res_id":"rsv333","size":"m","res_name":"อ่างเก็บน้ำลุมพุก","province":"สุรินทร์","lat":14.7177403,"lon":103.2859206,"vol_mcm":0.364}},
{"type":"Feature","geometry":{"type":"Point","coordinates":[103.3943582,15.24496301]},"properties":{"res_id":"rsv334","size":"m","res_name":"อ่างเก็บน้ำหนองกระทุ่ม","province":"สุรินทร์","lat":15.24496301,"lon":103.3943582,"vol_mcm":0.539}},
{"type":"Feature","geometry":{"type":"Point","coordinates":[103.6899753,15.17589377]},"properties":{"res_id":"rsv335","size":"m","res_name":"อ่างเก็บน้ำลุงปุง","province":"สุรินทร์","lat":15.17589377,"lon":103.6899753,"vol_mcm":0.779}},
{"type":"Feature","geometry":{"type":"Point","coordinates":[101.9944811,14.81706302]},"properties":{"res_id":"rsv290","size":"m","res_name":"อ่างเก็บน้ำห้วยบ้านยาง","province":"นครราชสีมา","lat":14.81706302,"lon":101.9944811,"vol_mcm":6.52}},
{"type":"Feature","geometry":{"type":"Point","coordinates":[102.0890872,14.70549338]},"properties":{"res_id":"rsv286","size":"m","res_name":"อ่างเก็บน้ำห้วยยาง","province":"นครราชสีมา","lat":14.70549338,"lon":102.0890872,"vol_mcm":5.53}},
{"type":"Feature","geometry":{"type":"Point","coordinates":[102.0227744,14.43827401]},"properties":{"res_id":"rsv299","size":"m","res_name":"อ่างเก็บน้ำห้วยบะอีแตน","province":"นครราชสีมา","lat":14.43827401,"lon":102.0227744,"vol_mcm":1.8}},
{"type":"Feature","geometry":{"type":"Point","coordinates":[101.7041802,14.75425158]},"properties":{"res_id":"rsv289","size":"m","res_name":"อ่างเก็บน้ำห้วยซับประดู่","province":"นครราชสีมา","lat":14.75425158,"lon":101.7041802,"vol_mcm":27.664}},
{"type":"Feature","geometry":{"type":"Point","coordinates":[101.5578832,15.02600236]},"properties":{"res_id":"rsv295","size":"m","res_name":"อ่างเก็บน้ำห้วยปราสาทใหญ่","province":"นครราชสีมา","lat":15.02600236,"lon":101.5578832,"vol_mcm":8.7}},
{"type":"Feature","geometry":{"type":"Point","coordinates":[101.642901,15.09382149]},"properties":{"res_id":"rsv300","size":"m","res_name":"อ่างเก็บน้ำลำเชียงไกร ตอนบน","province":"นครราชสีมา","lat":15.09382149,"lon":101.642901,"vol_mcm":8.4}},
{"type":"Feature","geometry":{"type":"Point","coordinates":[101.8989147,15.12312397]},"properties":{"res_id":"rsv292","size":"m","res_name":"อ่างเก็บน้ำลำเชียงไกร ตอนล่าง","province":"นครราชสีมา","lat":15.12312397,"lon":101.8989147,"vol_mcm":27.7}},
{"type":"Feature","geometry":{"type":"Point","coordinates":[101.9697205,15.1462093]},"properties":{"res_id":"rsv293","size":"m","res_name":"อ่างเก็บน้ำหนองกก","province":"นครราชสีมา","lat":15.1462093,"lon":101.9697205,"vol_mcm":2.967}},
{"type":"Feature","geometry":{"type":"Point","coordinates":[102.290741,15.35821051]},"properties":{"res_id":"rsv297","size":"m","res_name":"อ่างเก็บน้ำห้วยตะคร้อ","province":"นครราชสีมา","lat":15.35821051,"lon":102.290741,"vol_mcm":9.5}},
{"type":"Feature","geometry":{"type":"Point","coordinates":[102.3928609,15.47043105]},"properties":{"res_id":"rsv301","size":"m","res_name":"อ่างเก็บน้ำห้วยน้ำเค็ม","province":"นครราชสีมา","lat":15.47043105,"lon":102.3928609,"vol_mcm":1.07}},
{"type":"Feature","geometry":{"type":"Point","coordinates":[102.740362,15.4575886]},"properties":{"res_id":"rsv285","size":"m","res_name":"อ่างเก็บน้ำบึงกระโตน","province":"นครราชสีมา","lat":15.4575886,"lon":102.740362,"vol_mcm":10.214}},
{"type":"Feature","geometry":{"type":"Point","coordinates":[102.7133516,15.20136323]},"properties":{"res_id":"rsv287","size":"m","res_name":"อ่างเก็บน้ำห้วยบง","province":"นครราชสีมา","lat":15.20136323,"lon":102.7133516,"vol_mcm":14.5}},
{"type":"Feature","geometry":{"type":"Point","coordinates":[102.5163624,15.06004458]},"properties":{"res_id":"rsv284","size":"m","res_name":"อ่างเก็บน้ำห้วยสะกาด","province":"นครราชสีมา","lat":15.06004458,"lon":102.5163624,"vol_mcm":3.578}},
{"type":"Feature","geometry":{"type":"Point","coordinates":[102.4889801,14.98795404]},"properties":{"res_id":"rsv283","size":"m","res_name":"อ่างเก็บน้ำลำฉมวก","province":"นครราชสีมา","lat":14.98795404,"lon":102.4889801,"vol_mcm":23.445}},
{"type":"Feature","geometry":{"type":"Point","coordinates":[102.1819599,14.30370114]},"properties":{"res_id":"rsv291","size":"m","res_name":"อ่างเก็บน้ำห้วยทับครัว","province":"นครราชสีมา","lat":14.30370114,"lon":102.1819599,"vol_mcm":5}},
{"type":"Feature","geometry":{"type":"Point","coordinates":[102.3049899,14.2230021]},"properties":{"res_id":"rsv280","size":"m","res_name":"อ่างเก็บน้ำห้วยเพลียก","province":"นครราชสีมา","lat":14.2230021,"lon":102.3049899,"vol_mcm":1.5}},
{"type":"Feature","geometry":{"type":"Point","coordinates":[102.3881912,14.25829384]},"properties":{"res_id":"rsv282","size":"m","res_name":"อ่างเก็บน้ำห้วยหิน","province":"นครราชสีมา","lat":14.25829384,"lon":102.3881912,"vol_mcm":1.95}}
]}